City_ID,City,Country,Lat,Lng,Max Temp,Humidity,Cloudiness,Wind Speed,Current Description
0,Lorengau,PG,-2.0226,147.2712,81.72,78,96,6.31,overcast clouds
1,Arraial Do Cabo,BR,-22.9661,-42.0278,93.06,49,0,16.11,clear sky
2,Bredasdorp,ZA,-34.5322,20.0403,73.27,28,31,11.45,scattered clouds
3,Butaritari,KI,3.0707,172.7902,81.09,78,60,15.3,light rain
4,Nemuro,JP,43.3236,145.575,22.42,74,52,18.84,broken clouds
5,Rikitea,PF,-23.1203,-134.9692,78.73,72,100,16.42,overcast clouds
6,Punta Arenas,CL,-53.15,-70.9167,68.11,54,75,17.27,broken clouds
7,Kruisfontein,ZA,-34.0033,24.7314,81.88,54,78,17.69,broken clouds
8,Elmira,US,42.0898,-76.8077,23.4,68,15,10.69,few clouds
9,Cape Town,ZA,-33.9258,18.4232,83.12,53,20,5.99,few clouds
10,Caucaia,BR,-3.7361,-38.6531,87.75,70,40,12.66,scattered clouds
11,Payo,ID,-3.7508,103.6372,72.77,97,100,2.77,overcast clouds
12,Atuona,PF,-9.8,-139.0333,78.42,75,11,19.8,few clouds
13,Semey,KZ,50.4111,80.2275,-0.15,78,0,5.7,clear sky
14,Hobart,AU,-42.8794,147.3294,55.06,82,33,0.0,scattered clouds
15,Mahebourg,MU,-20.4081,57.7,79.25,82,46,12.73,scattered clouds
16,Bluff,NZ,-46.6,168.3333,41.81,78,0,5.39,clear sky
17,Bengkulu,ID,-3.8004,102.2655,77.0,83,98,7.43,overcast clouds
18,Lebu,CL,-37.6167,-73.65,66.99,60,0,13.76,clear sky
19,Minjur,IN,13.2667,80.2667,81.0,70,100,8.41,overcast clouds
20,Elliot Lake,CA,46.3834,-82.6331,23.09,89,100,10.38,light snow
21,Puerto Ayora,EC,-0.7393,-90.3518,80.56,86,70,8.01,broken clouds
22,Albany,US,42.6001,-73.9662,22.62,54,17,1.99,few clouds
23,Termoli,IT,41.9888,14.9895,53.58,75,3,11.34,clear sky
24,Port Macquarie,AU,-31.4333,152.9167,62.89,78,91,11.88,overcast clouds
25,Praya,CV,14.9215,-23.5087,81.14,36,0,18.41,clear sky
26,Qaqortoq,GL,60.7167,-46.0333,7.3,56,100,5.53,overcast clouds
27,Seminole,US,28.7086,-81.2081,66.22,90,100,1.01,overcast clouds
28,Port Alfred,ZA,-33.5906,26.891,77.52,78,0,31.41,clear sky
29,Rio Gallegos,AR,-51.6226,-69.2181,69.85,46,75,19.57,light rain
30,Yellowknife,CA,62.456,-114.3525,-12.44,86,100,11.01,overcast clouds
31,Bethel,US,41.3712,-73.414,24.73,54,0,1.01,clear sky
32,Constitucion,CL,-35.3333,-72.4167,73.13,51,2,6.04,clear sky
33,Te Anau,NZ,-45.4167,167.7167,39.97,93,2,1.59,clear sky
34,Kapaa,US,22.0752,-159.319,73.72,86,75,10.36,light rain
35,New Norfolk,AU,-42.7826,147.0587,54.72,67,49,1.32,scattered clouds
36,Vaini,TO,-21.2,-175.2,73.56,94,100,9.22,drizzle
37,Saskylakh,RU,71.9167,114.0833,-26.09,100,97,1.45,overcast clouds
38,Tuktoyaktuk,CA,69.4541,-133.0374,-15.29,98,100,10.42,overcast clouds
39,Victoria,HK,22.2855,114.1577,62.65,84,100,1.99,overcast clouds
40,Jamestown,US,42.097,-79.2353,27.01,47,0,7.0,clear sky
41,Rawson,AR,-43.3002,-65.1023,73.38,38,15,14.25,few clouds
42,Adelaide,AU,-34.9333,138.6,78.42,30,0,7.0,clear sky
43,Ushuaia,AR,-54.8,-68.3,58.23,55,82,6.62,broken clouds
44,Petropavlovsk-Kamchatskiy,RU,53.0452,158.6483,19.11,77,100,13.38,overcast clouds
45,Kavieng,PG,-2.5744,150.7967,81.55,78,100,3.78,overcast clouds
46,Mataura,NZ,-46.1927,168.8643,41.49,99,1,2.04,clear sky
47,Hasaki,JP,35.7333,140.8333,27.0,39,0,23.87,clear sky
48,Dunedin,NZ,-45.8742,170.5036,49.8,83,28,4.76,scattered clouds
49,Torbay,CA,47.6666,-52.7314,18.75,85,75,16.11,broken clouds
50,Nueva Imperial,CL,-38.7333,-72.95,79.45,26,1,3.62,clear sky
51,Sol-Iletsk,RU,51.1631,54.9918,15.91,97,97,6.29,overcast clouds
52,Itarema,BR,-2.9248,-39.9167,87.03,59,29,13.8,scattered clouds
53,Udachnyy,RU,66.4167,112.4,-12.1,99,99,3.31,overcast clouds
54,Chuy,UY,-33.6971,-53.4616,71.85,56,71,14.85,broken clouds
55,Villa Corzo,MX,16.1667,-93.25,65.19,62,79,4.41,broken clouds
56,Longyearbyen,SJ,78.2186,15.6401,19.24,63,40,18.41,scattered clouds
57,Pisco,PE,-13.7,-76.2167,69.85,83,99,10.36,mist
58,Lata,PT,40.1629,-8.3327,64.72,29,65,6.06,broken clouds
59,Valleyview,CA,55.0667,-117.2859,40.93,57,100,24.23,overcast clouds
60,Marzuq,YE,14.4,46.4667,70.07,31,28,2.84,scattered clouds
61,Muisne,EC,0.6,-80.0333,75.31,78,48,7.2,scattered clouds
62,Vao,NC,-22.6667,167.4833,79.66,85,90,2.17,overcast clouds
63,Hamada,JP,34.8833,132.0833,32.0,58,100,16.33,overcast clouds
64,Arai,JP,37.0167,138.25,29.12,90,100,6.85,snow
65,Geraldton,AU,-28.7667,114.6,69.13,49,75,16.11,broken clouds
66,Ribeira Grande,PT,38.5167,-28.7,64.8,77,20,18.41,few clouds
67,Coahuayana,MX,18.7333,-103.6833,81.88,32,5,0.78,clear sky
68,Nikolskoye,RU,59.7035,30.7861,34.88,92,100,11.92,snow
69,Caravelas,BR,-17.7125,-39.2481,87.06,54,0,10.25,clear sky
70,Hilo,US,19.7297,-155.09,67.39,96,22,4.0,moderate rain
71,Aklavik,CA,68.2191,-135.0107,-12.87,94,100,16.49,overcast clouds
72,Avarua,CK,-21.2078,-159.775,73.45,94,92,4.61,moderate rain
73,Hithadhoo,MV,-0.6,73.0833,82.89,70,28,11.34,scattered clouds
74,Sisimiut,GL,66.9395,-53.6735,-0.08,88,100,7.25,overcast clouds
75,Katsuura,JP,35.1333,140.3,37.51,44,5,12.19,clear sky
76,Esperance,AU,-33.8667,121.9,67.84,82,7,26.06,clear sky
77,Carnarvon,AU,-24.8667,113.6333,74.88,73,13,22.73,few clouds
78,Atherton,GB,53.5237,-2.4935,45.95,74,91,11.01,overcast clouds
79,Santa Quiteria,BR,-4.3319,-40.1567,96.35,31,26,6.82,scattered clouds
80,Paamiut,GL,61.994,-49.6678,4.69,75,100,8.34,overcast clouds
81,Raton,US,36.9034,-104.4391,29.01,74,100,4.0,overcast clouds
82,Morro Bay,US,35.3658,-120.8499,54.81,58,0,6.85,clear sky
83,Cayenne,GF,4.9333,-52.3333,83.08,81,100,5.01,overcast clouds
84,Mount Isa,AU,-20.7333,139.5,76.77,65,75,6.91,broken clouds
85,Barrow,US,71.2906,-156.7887,-17.09,95,100,7.96,overcast clouds
86,Busselton,AU,-33.65,115.3333,56.08,69,71,16.55,broken clouds
87,Husavik,IS,66.0449,-17.3389,25.39,89,100,13.89,light snow
88,Vila Franca Do Campo,PT,37.7167,-25.4333,64.81,84,77,14.61,broken clouds
89,Hinton,CA,53.4001,-117.5857,31.95,70,100,8.41,overcast clouds
90,Ligayan,PH,4.6533,119.4706,81.45,76,96,7.11,overcast clouds
91,Kalabo,ZM,-14.97,22.6814,74.19,78,91,1.97,moderate rain
92,Iqaluit,CA,63.7506,-68.5145,-34.31,65,63,1.99,broken clouds
93,Terre-De-Bas,GP,15.8501,-61.6442,82.65,72,70,14.92,broken clouds
94,Yanam,IN,16.7333,82.2167,70.21,76,23,4.29,few clouds
95,Elat,IL,29.5581,34.9482,64.24,34,0,9.22,clear sky
96,Vardo,NO,70.3705,31.1107,25.0,78,67,20.92,broken clouds
97,Hermanus,ZA,-34.4187,19.2345,82.9,68,8,11.52,clear sky
98,Malanje,AO,-9.5402,16.341,77.58,55,63,7.29,broken clouds
99,Samana,DO,19.2056,-69.3369,77.22,88,40,9.22,scattered clouds
100,Cherskiy,RU,68.75,161.3,-30.37,100,37,1.45,scattered clouds
101,Novichikha,RU,52.204,81.3877,-1.35,96,5,4.99,clear sky
102,Worland,US,44.0169,-107.9554,29.55,84,0,1.01,clear sky
103,Machinga,MW,-15.1685,35.3,70.47,85,31,5.5,scattered clouds
104,Chokurdakh,RU,70.6333,147.9167,-38.99,100,98,2.24,overcast clouds
105,Lac Du Bonnet,CA,50.2536,-96.0612,3.45,95,91,6.04,overcast clouds
106,Chauk,MM,20.8833,94.8167,68.43,45,97,6.46,overcast clouds
107,Boyolangu,ID,-8.1181,111.8935,74.95,97,100,5.1,overcast clouds
108,Njombe,TZ,-9.3333,34.7667,58.14,94,100,6.89,light rain
109,Klaksvik,FO,62.2266,-6.589,36.52,61,85,36.73,overcast clouds
110,Hueytown,US,33.4512,-86.9967,46.04,56,0,4.61,clear sky
111,Kabinda,CD,-6.1333,24.4833,73.09,84,94,3.15,moderate rain
112,Mathathane,BW,-22.2687,28.7495,82.94,34,22,22.82,few clouds
113,Ponta Do Sol,PT,32.6667,-17.1,66.13,54,11,11.7,few clouds
114,Gostyn,PL,51.8825,17.0123,46.06,84,100,20.49,overcast clouds
115,Leningradskiy,RU,69.3833,178.4167,-22.5,98,16,5.79,few clouds
116,Mehamn,NO,71.0357,27.8492,30.38,80,0,32.21,clear sky
117,Dikson,RU,73.5069,80.5464,-22.74,99,70,8.37,broken clouds
118,Esil,KZ,51.9556,66.4042,10.02,83,44,10.47,scattered clouds
119,Puerto Carreno,CO,6.189,-67.4859,94.89,33,16,4.63,few clouds
120,Karlstad,SE,59.3793,13.5036,36.16,75,46,12.66,scattered clouds
121,Pangnirtung,CA,66.1451,-65.7125,-33.56,92,94,3.15,overcast clouds
122,Guerrero Negro,MX,27.9769,-114.0611,59.16,39,0,2.33,clear sky
123,East London,ZA,-33.0153,27.9116,74.34,88,20,23.02,few clouds
124,Noumea,NC,-22.2763,166.4572,76.98,90,100,3.51,overcast clouds
125,Farmington,US,36.7281,-108.2187,34.74,55,0,1.99,clear sky
126,Launceston,AU,-41.45,147.1667,56.84,76,100,5.75,overcast clouds
127,Mar Del Plata,AR,-38.0023,-57.5575,67.08,100,100,5.99,heavy intensity rain
128,Ostersund,SE,63.1792,14.6357,21.65,93,0,5.75,clear sky
129,Tasiilaq,GL,65.6145,-37.6368,23.16,63,100,24.63,overcast clouds
130,Port Elizabeth,ZA,-33.918,25.5701,83.1,75,31,26.02,scattered clouds
131,Najran,SA,17.4924,44.1277,66.56,32,4,9.55,clear sky
132,Pinawa,CA,50.1489,-95.8811,3.87,94,92,5.95,overcast clouds
133,Caohai,CN,26.8661,104.2841,30.2,91,87,8.5,light snow
134,Krasnogorodsk,RU,56.8357,28.2822,32.83,94,100,13.04,light snow
135,Aksu,CN,41.1231,80.2644,23.41,46,84,2.98,broken clouds
136,Georgetown,MY,5.4112,100.3354,76.95,95,40,3.44,moderate rain
137,Can,TR,40.0333,27.0524,47.08,80,0,1.95,clear sky
138,Qandala,SO,11.472,49.8728,76.15,66,45,2.53,scattered clouds
139,Kefalos,GR,36.7453,26.9589,55.62,54,0,6.91,clear sky
140,Marawi,PH,7.9986,124.2928,67.64,91,72,2.91,broken clouds
141,Beringovskiy,RU,63.05,179.3167,-16.82,98,15,9.1,few clouds
142,Nouadhibou,MR,20.931,-17.0347,66.09,76,5,16.24,clear sky
143,Dudinka,RU,69.4058,86.1778,-33.77,100,16,3.65,few clouds
144,Troitskoye,RU,52.9821,84.6757,4.3,95,22,4.36,few clouds
145,Talnakh,RU,69.4865,88.3972,-26.55,98,55,2.01,broken clouds
146,Kemijarvi,FI,66.7131,27.4306,19.42,90,100,10.11,overcast clouds
147,Zhigansk,RU,66.7697,123.3711,-28.41,99,99,6.51,overcast clouds
148,Qaanaaq,GL,77.484,-69.3632,-12.8,62,73,8.34,broken clouds
149,Cabo San Lucas,MX,22.8909,-109.9124,67.51,74,80,3.2,broken clouds
150,Asau,RO,46.4333,26.4,41.4,54,100,6.38,overcast clouds
151,Clonakilty,IE,51.6231,-8.8706,51.01,80,85,22.5,overcast clouds
152,Moron,AR,-34.6534,-58.6198,69.03,55,13,11.52,few clouds
153,Saldanha,ZA,-33.0117,17.9442,67.82,87,41,12.01,scattered clouds
154,Mitsamiouli,KM,-11.3847,43.2844,82.27,74,98,7.45,overcast clouds
155,Lerwick,GB,60.1545,-1.1494,35.6,79,100,25.46,overcast clouds
156,Norman Wells,CA,65.282,-126.8329,-12.77,99,100,5.97,overcast clouds
157,Cerritos,US,33.8583,-118.0648,66.31,33,0,2.26,clear sky
158,Maragogi,BR,-9.0122,-35.2225,85.66,58,97,12.06,overcast clouds
159,Grindavik,IS,63.8424,-22.4338,28.87,80,75,12.66,broken clouds
160,Nanortalik,GL,60.1432,-45.2371,13.91,63,100,15.84,overcast clouds
161,Sheffield,GB,53.383,-1.4659,45.9,85,65,8.99,light rain
162,Sao Joao Da Barra,BR,-21.6403,-41.0511,87.89,78,4,16.22,clear sky
163,Port Hedland,AU,-20.3167,118.5667,84.25,84,40,10.36,scattered clouds
164,Saint-Philippe,RE,-21.3585,55.7679,80.19,80,99,16.64,overcast clouds
165,Wuchang,CN,44.9143,127.15,-5.33,97,53,4.54,broken clouds
166,Svetlogorsk,BY,52.6333,29.7333,32.61,88,100,13.53,overcast clouds
167,Sitka,US,57.0531,-135.33,44.49,81,100,21.85,light rain
168,Vicuna,CL,-30.0319,-70.7081,90.77,31,0,9.06,clear sky
169,Airai,TL,-8.9266,125.4092,61.97,93,73,1.23,broken clouds
170,Manavalakurichi,IN,8.1333,77.3,82.49,80,72,6.35,broken clouds
171,Casablanca,MA,33.5928,-7.6192,66.42,72,18,11.01,few clouds
172,Honggang,CN,46.4667,124.8667,-6.61,97,27,4.0,scattered clouds
173,Pavilosta,LV,56.8879,21.1859,39.11,93,99,14.58,overcast clouds
174,Goba,ET,7.0167,39.9833,55.87,30,100,3.42,overcast clouds
175,Port-Gentil,GA,-0.7193,8.7815,80.53,76,5,9.51,clear sky
176,Nelson Bay,AU,-32.7167,152.15,67.08,82,97,15.97,overcast clouds
177,Cozumel,MX,20.5083,-86.9458,75.94,88,100,5.01,overcast clouds
178,Saint-Augustin,CA,51.226,-58.6502,-3.21,70,19,16.78,few clouds
179,Leshukonskoye,RU,64.8989,45.7622,14.5,93,100,9.04,overcast clouds
180,Bartow,US,27.8964,-81.8431,63.28,82,100,5.01,overcast clouds
181,Flagstaff,US,35.1981,-111.6513,39.6,33,0,3.0,clear sky
182,Ortega,CO,3.9361,-75.2217,78.87,78,81,3.96,broken clouds
183,Faanui,PF,-16.4833,-151.75,80.89,74,95,20.69,light rain
184,Teya,RU,60.3778,92.6267,9.75,98,100,1.36,overcast clouds
185,Butajira,ET,8.1167,38.3667,69.21,35,79,6.98,broken clouds
186,Kavaratti,IN,10.5669,72.642,78.53,66,44,8.59,scattered clouds
187,Fukue,JP,32.6881,128.8419,45.21,58,97,17.94,overcast clouds
188,Turukhansk,RU,65.8167,87.9833,-11.47,100,93,3.22,overcast clouds
189,Santander,ES,43.4647,-3.8044,53.82,52,0,3.0,clear sky
190,Tuy Hoa,VN,13.0833,109.3,72.7,92,100,5.35,overcast clouds
191,Ugoofaaru,MV,5.6667,73.0,81.66,64,97,11.65,overcast clouds
192,Lasa,IT,46.6166,10.7002,43.54,79,93,3.51,overcast clouds
193,Athabasca,CA,54.7169,-113.2854,36.82,88,100,12.39,overcast clouds
194,Bandarbeyla,SO,9.4942,50.8122,76.08,69,78,12.8,broken clouds
195,Hamilton,US,39.1834,-84.5333,32.99,72,0,1.01,light snow
196,Bundaberg,AU,-24.85,152.35,67.21,83,54,5.99,broken clouds
197,Vanimo,PG,-2.6741,141.3028,78.42,86,87,4.63,overcast clouds
198,Olafsvik,IS,64.8945,-23.7142,28.83,70,80,14.38,broken clouds
199,Mahanoro,MG,-19.9,48.8,79.66,88,100,8.77,light rain
200,Ostrovskoye,RU,57.8057,42.2433,3.24,100,82,4.76,broken clouds
201,Agadir,MA,30.4202,-9.5982,82.85,40,24,10.96,few clouds
202,Bambanglipuro,ID,-7.95,110.2833,76.01,95,100,3.33,overcast clouds
203,Miramar,US,25.9873,-80.2323,79.02,72,20,6.91,few clouds
204,Pevek,RU,69.7008,170.3133,-24.48,99,29,1.32,scattered clouds
205,Maicao,CO,11.3832,-72.2432,86.27,48,39,12.84,scattered clouds
206,Bathsheba,BB,13.2167,-59.5167,84.81,61,40,17.27,scattered clouds
207,Salalah,OM,17.0151,54.0924,77.09,78,0,2.3,clear sky
208,Tiksi,RU,71.6872,128.8694,-17.59,99,100,3.33,overcast clouds
209,Severnyy,RU,50.677,36.5532,32.04,86,75,6.71,light snow
210,Zhezkazgan,KZ,47.8043,67.7144,25.61,97,100,14.36,snow
211,Khatanga,RU,71.9667,102.5,-23.12,99,94,7.45,overcast clouds
212,Yar-Sale,RU,66.8333,70.8333,-15.38,100,66,5.86,broken clouds
213,Aloleng,PH,16.1307,119.7824,77.67,69,29,9.01,scattered clouds
214,Richards Bay,ZA,-28.783,32.0377,74.55,88,23,8.5,light rain
215,Sorland,NO,67.667,12.6934,33.87,63,100,17.87,overcast clouds
216,Umm Lajj,SA,25.0213,37.2685,70.23,45,0,24.79,clear sky
217,Karatau,KZ,43.1667,70.4667,36.25,81,100,35.1,overcast clouds
218,Aykhal,RU,66.0,111.5,-9.11,98,100,5.08,overcast clouds
219,Clyde River,CA,70.4692,-68.5914,-36.17,61,0,4.61,haze
220,Jalu,LY,29.0331,21.5482,65.12,23,4,3.06,clear sky
221,Inuvik,CA,68.3499,-133.7218,-14.49,98,100,9.98,light snow
222,San Andres,CO,12.5847,-81.7006,84.22,58,20,11.5,few clouds
223,Taian,CN,36.1853,117.12,33.12,34,85,2.21,overcast clouds
224,Nedumangad,IN,8.6,77.0,81.68,74,20,4.61,haze
225,Urumqi,CN,43.801,87.6005,-1.25,85,5,2.24,mist
226,Lompoc,US,34.6391,-120.4579,62.78,75,0,6.91,clear sky
227,Colotlan,MX,22.1,-103.2667,61.36,48,11,4.25,few clouds
228,Narsaq,GL,60.9167,-46.05,7.02,56,100,2.48,overcast clouds
229,Sao Jose De Ribamar,BR,-2.5619,-44.0542,84.58,82,50,12.44,moderate rain
230,Bure,ET,10.7,37.0667,66.76,45,51,7.63,broken clouds
231,Hofn,IS,64.2539,-15.2082,32.02,47,0,17.27,clear sky
232,Liepaja,LV,56.5419,21.0367,39.25,87,100,14.97,overcast clouds
233,Stokmarknes,NO,68.5646,14.9108,33.78,60,75,6.91,broken clouds
234,Rundu,NA,-17.9333,19.7667,74.75,73,81,3.33,broken clouds
235,Maldonado,UY,-34.6667,-54.9167,66.22,47,55,18.54,broken clouds
236,Talara,PE,-4.5772,-81.2719,83.16,51,0,18.41,clear sky
237,Castro,BR,-24.7911,-50.0119,76.26,71,81,8.14,broken clouds
238,Tabas,IR,33.5959,56.9244,51.91,33,22,7.29,few clouds
239,San Pedro,PH,14.35,121.0167,78.35,81,84,13.71,broken clouds
240,Nehoiu,RO,45.4167,26.3,35.62,69,100,3.53,overcast clouds
241,Henties Bay,NA,-22.116,14.2845,71.85,79,79,8.37,broken clouds
242,Poya,NC,-21.35,165.15,77.25,90,100,3.71,overcast clouds
243,La Rioja,ES,42.25,-2.5,54.05,48,100,3.62,overcast clouds
244,Kismayo,SO,-0.3582,42.5454,78.44,81,44,16.08,scattered clouds
245,Quatre Cocos,MU,-20.2078,57.7625,79.09,82,61,11.54,broken clouds
246,Vanavara,RU,60.34,102.2797,-10.61,100,73,2.84,broken clouds
247,Havelock,US,34.8791,-76.9013,44.94,73,94,4.0,overcast clouds
248,Miles City,US,46.4083,-105.8406,36.57,69,0,6.91,clear sky
249,Tura,IN,25.5198,90.2201,53.76,78,27,3.2,scattered clouds
250,Dengzhou,CN,37.8086,120.7508,31.1,55,55,7.18,broken clouds
251,Elko,US,41.0002,-115.5012,19.22,64,5,5.03,clear sky
252,Tokur,RU,53.1333,132.9,-23.3,98,97,2.1,overcast clouds
253,Lopatino,RU,52.6195,45.8118,-1.48,100,51,3.44,broken clouds
254,Olga,RU,43.7444,135.2892,9.84,61,2,11.18,clear sky
255,Naryan-Mar,RU,67.6713,53.087,8.62,84,81,16.42,broken clouds
256,Vostok,RU,46.4856,135.8833,-12.12,99,80,4.43,broken clouds
257,Camacupa,AO,-12.0167,17.4833,70.93,60,87,5.73,overcast clouds
258,Verkhoyansk,RU,67.5447,133.385,-35.09,98,100,0.94,overcast clouds
259,Cidreira,BR,-30.1811,-50.2056,80.67,54,23,12.39,few clouds
260,Fortuna,US,40.5982,-124.1573,38.32,93,0,8.05,clear sky
261,Mayo,US,38.8876,-76.5119,33.19,44,0,1.99,clear sky
262,Farafangana,MG,-22.8167,47.8333,78.64,92,100,19.48,moderate rain
263,Ionia,US,42.9873,-85.0711,26.82,70,75,11.5,broken clouds
264,Hvolsvollur,IS,63.7533,-20.2243,30.87,80,29,7.45,scattered clouds
265,Srednekolymsk,RU,67.45,153.6833,-37.01,100,60,0.94,broken clouds
266,Lesosibirsk,RU,58.2358,92.4828,12.92,97,100,2.91,overcast clouds
267,Alofi,NU,-19.0595,-169.9187,79.52,72,100,4.03,light rain
268,Yook,PH,13.2261,121.964,76.39,88,46,7.96,scattered clouds
269,Menongue,AO,-14.6585,17.691,66.52,80,100,6.17,overcast clouds
270,Yaan,NG,7.3833,8.5667,97.05,9,49,3.89,scattered clouds
271,Saint-Pierre,RE,-21.3393,55.4781,80.28,78,0,3.44,clear sky
272,Port Lincoln,AU,-34.7333,135.8667,70.23,71,1,12.39,clear sky
273,Bambous Virieux,MU,-20.3428,57.7575,79.21,82,50,12.3,scattered clouds
274,Providencia,MX,28.7167,-111.5833,55.85,57,2,5.99,clear sky
275,Marathon,US,44.9,-89.7668,24.04,80,100,3.44,overcast clouds
276,Kanniyakumari,IN,8.0833,77.5667,79.45,75,59,8.12,broken clouds
277,Sabang,ID,5.8933,95.3214,80.35,81,100,15.55,moderate rain
278,Buzmeyin,TM,38.0507,58.2056,40.59,64,71,6.04,broken clouds
279,Sterlibashevo,RU,53.4376,55.2578,14.49,94,99,1.79,overcast clouds
280,Codrington,AU,-38.2667,141.9667,61.72,69,0,11.72,clear sky
281,Zaoyang,CN,32.1272,112.7542,32.34,97,100,9.1,light snow
282,Gazanjyk,TM,39.2446,55.5154,41.45,61,40,5.44,scattered clouds
283,Kalmunai,LK,7.4167,81.8167,77.25,77,98,9.13,overcast clouds
284,Ramos Arizpe,MX,25.55,-100.9667,60.84,45,17,1.86,few clouds
285,Roald,NO,62.5833,6.1333,39.34,65,75,14.97,broken clouds
286,Rassvet,RU,46.8333,40.75,30.79,98,100,15.66,overcast clouds
287,Dauphin,CA,51.1494,-100.0502,-7.13,96,100,3.85,overcast clouds
288,Shimoda,JP,34.6667,138.95,35.1,73,71,7.7,broken clouds
289,Ostrovnoy,RU,68.0531,39.5131,15.49,84,100,22.19,overcast clouds
290,Yuancheng,CN,36.652,107.7896,18.3,96,96,1.9,overcast clouds
291,Sept-Iles,CA,50.2001,-66.3821,3.06,49,9,4.0,clear sky
292,Dakoro,NE,14.5106,6.765,84.2,8,0,13.71,clear sky
293,Bardiyah,LY,31.7561,25.0865,61.57,51,0,9.37,clear sky
294,Sistranda,NO,63.7256,8.834,38.89,64,100,32.82,light snow
295,Isla Mujeres,MX,21.2311,-86.731,75.25,82,68,13.65,broken clouds
296,Rincon,US,32.296,-81.2354,42.85,82,100,1.01,overcast clouds
297,Araouane,ML,18.9048,-3.5265,82.35,6,0,6.24,clear sky
298,Lagoa,PT,39.05,-27.9833,60.39,80,0,9.95,clear sky
299,Sinnamary,GF,5.3833,-52.95,82.26,74,89,8.77,overcast clouds
300,San Eugenio,PH,16.3598,120.357,76.78,73,23,4.36,few clouds
301,Puerto Del Rosario,ES,28.5004,-13.8627,69.55,78,1,17.27,clear sky
302,Touros,BR,-5.1989,-35.4608,90.5,52,17,12.66,few clouds
303,Margate,GB,51.3813,1.3862,52.88,64,78,35.7,broken clouds
304,San Antonio,US,29.4241,-98.4936,48.38,62,0,0.0,clear sky
305,Vilyuysk,RU,63.7553,121.6247,-15.86,98,91,6.29,overcast clouds
306,Longyan,CN,25.1072,117.0225,50.92,96,100,3.0,light rain
307,Alyangula,AU,-13.8483,136.4192,79.92,80,100,8.81,overcast clouds
308,Otavi,NA,-19.65,17.3333,71.08,75,99,3.56,light rain
309,Havoysund,NO,70.9963,24.6622,30.43,74,35,28.77,scattered clouds
310,Ilulissat,GL,69.2167,-51.1,-0.38,50,100,4.61,overcast clouds
311,Verkhnechusovskiye Gorodki,RU,58.1671,57.1086,19.15,84,100,11.36,overcast clouds
312,Malindi,KE,-3.2175,40.1191,78.76,87,100,15.43,overcast clouds
313,Banda Aceh,ID,5.5577,95.3222,77.76,87,100,9.95,light rain
314,Nizwa,OM,22.9333,57.5333,71.67,43,1,5.32,clear sky
315,Honiara,SB,-9.4333,159.95,78.91,89,99,0.94,overcast clouds
316,Lavrentiya,RU,65.5833,-171.0,-12.39,91,5,6.78,clear sky
317,Bahia Honda,CU,22.9036,-83.1592,77.74,56,5,9.31,clear sky
318,Camacha,PT,33.0833,-16.3333,61.54,67,75,16.11,broken clouds
319,Washington,US,47.5001,-120.5015,37.92,90,100,1.45,overcast clouds
320,Ongandjera,NA,-17.8833,15.0667,81.18,41,99,3.0,overcast clouds
321,Thompson,CA,55.7435,-97.8558,-18.18,96,20,2.93,few clouds
322,Kaitangata,NZ,-46.2817,169.8464,44.92,80,2,2.75,clear sky
323,Pirogovo,RU,56.7796,53.1495,19.65,88,100,4.23,overcast clouds
324,Saint George,US,37.1041,-113.5841,45.36,32,0,6.91,clear sky
325,Morondava,MG,-20.2833,44.2833,80.47,83,100,21.18,moderate rain
326,Digapahandi,IN,19.3667,84.5833,65.14,69,43,3.69,scattered clouds
327,Brumadinho,BR,-20.1433,-44.1997,78.08,89,100,3.49,overcast clouds
328,Necochea,AR,-38.5473,-58.7368,63.03,79,94,21.32,overcast clouds
329,Montepuez,MZ,-13.1256,38.9997,71.49,91,17,1.12,moderate rain
330,Jardinopolis,BR,-21.0178,-47.7639,74.12,88,100,4.79,overcast clouds
331,Eureka,US,40.8021,-124.1637,38.59,53,57,3.2,broken clouds
332,Upernavik,GL,72.7868,-56.1549,-6.72,93,100,4.76,overcast clouds
333,Praia,CV,14.9215,-23.5087,81.14,36,0,18.41,clear sky
334,Nyrob,RU,60.733,56.7202,17.04,88,100,7.52,overcast clouds
335,Altus,US,34.6381,-99.334,37.98,73,0,3.44,clear sky
336,Nioro,GM,13.35,-15.75,102.38,6,2,6.15,clear sky
337,Davila,PH,18.4726,120.5763,74.44,81,45,14.85,scattered clouds
338,Comodoro Rivadavia,AR,-45.8667,-67.5,78.66,31,0,10.36,clear sky
339,Bilma,NE,18.6853,12.9164,76.12,9,0,10.13,clear sky
340,Honningsvag,NO,70.9821,25.9704,29.95,69,40,25.32,scattered clouds
341,Westport,US,41.1415,-73.3579,26.89,61,58,1.01,broken clouds
342,Batemans Bay,AU,-35.7167,150.1833,64.09,88,96,7.7,overcast clouds
343,Haines Junction,CA,60.7522,-137.5108,22.86,93,94,8.03,overcast clouds
344,Corbelia,BR,-24.7989,-53.3067,82.9,45,43,9.95,scattered clouds
345,Bartica,GY,6.4,-58.6167,80.69,85,88,3.98,overcast clouds
346,Piacabucu,BR,-10.4056,-36.4344,87.37,58,13,13.82,few clouds
347,Shaunavon,CA,49.6501,-108.4181,28.27,73,53,10.76,broken clouds
348,Polis,CY,35.0367,32.4264,55.29,91,76,3.27,broken clouds
349,Kikwit,CD,-5.041,18.8162,82.53,69,75,4.65,broken clouds
350,Vaxjo,SE,56.8777,14.8091,35.65,93,75,9.22,broken clouds
351,Kudahuvadhoo,MV,2.6708,72.8944,82.15,66,45,11.9,scattered clouds
352,Teavaro,PF,-17.5,-149.7667,80.08,69,75,9.22,light rain
353,Boa Vista,BR,2.8197,-60.6733,87.78,51,100,12.66,overcast clouds
354,Kaeo,NZ,-35.1,173.7833,74.32,98,100,5.35,overcast clouds
355,Quelimane,MZ,-17.8786,36.8883,82.35,83,40,12.66,scattered clouds
356,Atar,MR,20.5169,-13.0499,91.9,5,0,6.82,clear sky
357,Mazagao,BR,-0.115,-51.2894,82.45,91,100,3.15,overcast clouds
358,Hearst,CA,49.6835,-83.6665,14.05,92,100,6.06,light snow
359,Carutapera,BR,-1.195,-46.02,81.05,88,98,8.21,overcast clouds
360,Havre-Saint-Pierre,CA,50.2334,-63.5986,0.5,63,1,12.41,clear sky
361,Goderich,CA,43.7501,-81.7165,26.91,82,100,20.22,overcast clouds
362,Shingu,JP,33.7333,135.9833,39.9,70,6,6.69,clear sky
363,Helong,CN,42.5397,128.9972,8.44,78,64,7.2,broken clouds
364,Lawton,US,34.6087,-98.3903,36.07,70,10,3.0,clear sky
365,Alugan,PH,12.2188,125.4808,78.31,82,15,15.61,few clouds
366,Isla Vista,US,34.4133,-119.861,66.83,32,0,3.31,clear sky
367,Luderitz,NA,-26.6481,15.1594,70.9,72,25,11.72,scattered clouds
368,Nizhniy Tsasuchey,RU,50.5167,115.1333,0.64,97,93,3.85,overcast clouds
369,Adrar,MR,20.5022,-10.0711,84.31,6,0,9.4,clear sky
370,Coquimbo,CL,-29.9533,-71.3436,69.12,71,20,7.72,few clouds
371,Cabedelo,BR,-6.9811,-34.8339,85.15,56,45,10.13,scattered clouds
372,Paldiski,EE,59.3567,24.0531,35.15,100,100,10.36,overcast clouds
373,Wad Rawah,SD,15.1603,33.1397,73.62,13,1,11.99,clear sky
374,Tucupita,VE,9.0622,-62.051,84.27,65,42,5.28,scattered clouds
375,Homer,US,59.6425,-151.5483,30.04,92,100,0.0,overcast clouds
376,Starobaltachevo,RU,56.0013,55.9213,15.55,96,100,2.53,overcast clouds
377,Comitancillo,GT,15.0833,-91.7167,67.39,50,27,1.79,scattered clouds
378,Chigorodo,CO,7.6664,-76.6811,85.73,56,8,5.97,clear sky
379,Puerto Escondido,MX,15.85,-97.0667,83.23,78,0,5.75,clear sky
380,Cocorit,MX,27.5833,-109.9667,57.54,42,0,2.89,clear sky
381,San Patricio,US,28.017,-97.5169,55.29,70,0,5.37,clear sky
382,Sao Miguel Do Araguaia,BR,-13.275,-50.1628,78.48,85,100,4.68,light rain
383,Borovoy,RU,55.4333,86.0833,3.31,95,99,0.69,overcast clouds
384,Lufilufi,WS,-13.8745,-171.5986,74.98,79,98,12.48,moderate rain
385,Nuevo Progreso,MX,23.1667,-97.95,62.47,37,51,6.42,broken clouds
386,Chiriqui Grande,PA,8.95,-82.1167,89.08,58,6,5.53,clear sky
387,Karasburg,NA,-28.0167,18.75,71.35,60,99,27.96,moderate rain
388,Karpogory,RU,64.0019,44.4451,16.92,94,100,8.3,light snow
389,Isangel,VU,-19.55,169.2667,79.16,90,100,13.44,moderate rain
390,North Myrtle Beach,US,33.816,-78.68,46.11,54,20,12.66,few clouds
391,Sicuani,PE,-14.2694,-71.2261,43.2,95,100,3.31,moderate rain
392,Wattegama,LK,6.7989,81.4808,79.72,78,100,4.41,overcast clouds
393,Matay,EG,28.419,30.7792,60.13,38,0,8.19,clear sky
394,Zalantun,CN,48.0,122.7167,2.46,74,41,6.08,scattered clouds
395,Trincomalee,LK,8.5711,81.2335,79.66,66,51,15.61,broken clouds
396,Atambua,ID,-9.1061,124.8925,75.18,85,53,1.19,broken clouds
397,Aracati,BR,-4.5617,-37.7697,89.42,50,74,12.3,broken clouds
398,Acajutla,SV,13.5928,-89.8275,82.8,44,10,3.0,clear sky
399,Mubende,UG,0.5606,31.39,75.34,43,100,1.86,overcast clouds
400,Renqiu,CN,38.6989,116.0936,30.99,43,98,2.68,overcast clouds
401,Sterling,US,39.0062,-77.4286,32.23,58,20,1.99,few clouds
402,Raudeberg,NO,61.9875,5.1352,36.27,93,100,1.99,light rain
403,Tomatlan,MX,19.9333,-105.25,78.8,38,4,1.48,clear sky
404,Galesong,ID,-5.3166,119.3661,77.02,84,46,5.53,scattered clouds
405,Kununurra,AU,-15.7667,128.7333,75.18,94,40,0.0,scattered clouds
406,Mogwase,ZA,-25.185,27.2665,78.04,40,90,9.57,overcast clouds
407,San Juan De Uraba,CO,8.7592,-76.5297,83.28,63,50,8.9,scattered clouds
408,Ahuimanu,US,21.4447,-157.8378,73.11,81,75,1.01,light rain
409,Zhanaozen,KZ,43.3,52.8,31.33,64,68,10.51,broken clouds
410,Vestmannaeyjar,IS,63.4427,-20.2734,31.19,69,0,11.5,clear sky
411,Zhangzhou,CN,24.5133,117.6556,54.14,81,100,0.34,overcast clouds
412,Dubbo,AU,-32.25,148.6167,57.33,88,31,8.05,scattered clouds
413,Severo-Kurilsk,RU,50.6789,156.125,30.11,85,100,12.35,overcast clouds
414,Ancud,CL,-41.8697,-73.8203,74.23,67,9,6.31,clear sky
415,Poum,NC,-20.2333,164.0167,79.32,83,100,9.15,light rain
416,Kodiak,US,57.79,-152.4072,38.71,65,0,13.8,clear sky
417,San Carlos De Bariloche,AR,-41.1456,-71.3082,76.75,23,0,4.61,clear sky
418,Sao Joao Do Paraiso,BR,-15.3136,-42.0144,74.17,78,100,8.59,overcast clouds
419,Rindal,NO,63.0565,9.2124,28.04,93,100,12.19,light snow
420,Novobataysk,RU,46.8981,39.7819,31.51,78,100,15.77,overcast clouds
421,Swan Hill,AU,-35.3378,143.5544,69.04,31,6,7.78,clear sky
422,College,US,64.8569,-147.8028,0.28,78,100,5.75,light snow
423,Kudat,MY,6.8837,116.8477,77.38,90,93,12.62,overcast clouds
424,Ayr,GB,55.4627,-4.6339,41.09,75,75,32.21,broken clouds
425,Belaya Gora,RU,68.5333,146.4167,-42.27,100,74,1.83,broken clouds
426,Bilibino,RU,68.0546,166.4372,-17.9,78,14,4.52,few clouds
427,Angola,AO,-12.5,18.5,70.84,65,100,5.93,overcast clouds
428,Port Blair,IN,11.6667,92.75,79.41,79,11,11.05,few clouds
429,Mahajanga,MG,-15.7167,46.3167,80.08,79,54,10.71,light rain
430,Anshun,CN,26.25,105.9333,40.39,97,100,6.51,overcast clouds
431,Maues,BR,-3.3836,-57.7186,82.74,82,100,3.11,moderate rain
432,Kovvur,IN,17.0167,81.7333,68.16,80,40,5.46,scattered clouds
433,Juan Lacaze,UY,-34.4342,-57.4381,68.07,50,13,17.98,few clouds
434,Mount Gambier,AU,-37.8333,140.7667,63.59,59,1,6.6,clear sky
435,Makakilo City,US,21.3469,-158.0858,71.92,75,0,5.75,clear sky
436,Teluk Nibung,ID,3.001,99.8164,77.13,87,100,4.52,overcast clouds
437,Bolligen,CH,46.9751,7.497,44.08,58,75,14.0,light rain
438,Avera,US,33.194,-82.5271,45.28,46,52,11.9,broken clouds
439,Iralaya,HN,15.0,-83.2333,84.29,67,2,10.78,clear sky
440,Khandyga,RU,62.6667,135.6,-37.8,99,100,2.21,overcast clouds
441,Mareeba,AU,-17.0,145.4333,70.52,93,19,2.01,few clouds
442,Flinders,AU,-34.5833,150.8552,68.2,86,59,11.99,light rain
443,Ushtobe,KZ,45.2514,77.9838,19.62,88,32,3.33,scattered clouds
444,Canavieiras,BR,-15.675,-38.9472,85.75,58,62,7.78,broken clouds
445,Bala,PS,32.3339,35.1116,54.59,82,61,7.9,broken clouds
446,Sambava,MG,-14.2667,50.1667,79.75,80,27,9.55,scattered clouds
447,Kamenka,RU,51.3223,42.7678,22.75,97,100,6.69,overcast clouds
448,Abalak,RU,58.1286,68.5944,11.79,94,100,4.85,overcast clouds
449,Manta,EC,-0.95,-80.7333,78.58,78,100,4.61,overcast clouds
450,Det Udom,TH,14.906,105.0784,84.04,52,87,3.67,overcast clouds
451,Souillac,MU,-20.5167,57.5167,79.36,83,41,11.79,scattered clouds
452,Yeppoon,AU,-23.1333,150.7333,69.58,75,13,15.88,few clouds
453,Dingle,PH,10.9995,122.6711,75.31,87,42,8.88,scattered clouds
454,Sakaiminato,JP,35.55,133.2333,39.56,53,100,9.78,overcast clouds
455,Cockburn Town,TC,21.4612,-71.1419,76.08,66,17,14.32,few clouds
456,Grand-Santi,GF,4.25,-54.3833,81.57,86,100,3.47,heavy intensity rain
457,Benito Juarez,MX,19.385,-99.165,61.84,53,0,1.01,clear sky
458,Faya,SA,18.3851,42.4509,54.12,67,5,5.59,clear sky
459,Turinsk,RU,58.0458,63.696,12.81,94,100,6.29,overcast clouds
460,Kimry,RU,56.8667,37.35,16.9,97,99,4.38,overcast clouds
461,Dingli,MT,35.8614,14.3822,56.8,82,20,9.22,few clouds
462,Mizdah,LY,31.4451,12.9801,65.08,15,94,2.44,overcast clouds
463,Lobito,AO,-12.3481,13.5456,78.94,66,83,7.7,broken clouds
464,Log,RU,49.4844,43.8613,21.76,97,100,5.48,light snow
465,Sechura,PE,-5.5569,-80.8222,79.56,59,92,9.46,overcast clouds
466,Akyab,MM,20.15,92.9,66.43,53,100,16.71,overcast clouds
467,Hami,CN,42.8,93.45,28.08,28,79,15.59,broken clouds
468,Boma,GH,7.0805,-2.1697,99.81,17,6,2.82,clear sky
469,Bemidji,US,47.4736,-94.8803,8.15,80,100,13.8,overcast clouds
470,Esmeraldas,BR,-19.7625,-44.3139,77.86,92,100,4.61,overcast clouds
471,Bahia Blanca,AR,-38.7196,-62.2724,68.45,48,0,10.2,clear sky
472,Show Low,US,34.2542,-110.0298,34.07,36,0,11.5,clear sky
473,Santa Rosa,PH,14.3122,121.1114,79.11,81,89,13.78,overcast clouds
474,Tsumeb,NA,-19.2333,17.7167,70.93,79,96,9.01,moderate rain
475,Ukiah,US,39.1502,-123.2078,49.37,74,0,0.0,clear sky
476,Sunrise Manor,US,36.2111,-115.0731,55.45,23,0,14.97,clear sky
477,Byron Bay,AU,-28.65,153.6167,67.87,78,91,15.3,overcast clouds
478,Mecca,SA,21.4267,39.8261,72.77,31,0,10.45,clear sky
479,Muros,ES,42.7762,-9.0603,60.67,55,60,10.8,broken clouds
480,Suzhou,CN,31.3114,120.6181,40.87,58,100,7.16,light rain
481,Birao,CF,10.2849,22.7882,82.96,10,71,10.98,broken clouds
482,Vitim,RU,59.4511,112.5578,13.55,94,100,6.53,overcast clouds
483,Yuli,NG,9.6989,10.2744,91.94,12,1,8.9,clear sky
484,Ranong,TH,9.9658,98.6348,75.67,89,27,4.05,scattered clouds
485,Jiazi,CN,22.8779,116.067,57.36,81,100,19.82,overcast clouds
486,Provideniya,RU,64.3833,-173.3,-3.05,79,0,9.04,clear sky
487,Poli,TZ,-3.3333,36.8,66.43,73,97,2.89,light rain
488,Ejido,VE,8.5514,-71.2375,75.16,66,77,4.05,broken clouds
489,Camara De Lobos,PT,32.6333,-16.9667,66.13,84,75,18.41,broken clouds
490,Alamosa,US,37.4695,-105.87,14.34,79,100,8.05,overcast clouds
491,Sahuaripa,MX,29.05,-109.2333,59.27,38,8,1.05,clear sky
492,Nome,US,64.5011,-165.4064,-0.33,50,0,13.8,clear sky
493,Niquelandia,BR,-14.4739,-48.4597,79.63,76,79,4.36,broken clouds
494,Qasigiannguit,GL,68.8193,-51.1922,-0.15,80,100,1.74,overcast clouds
495,Esso,RU,55.9333,158.7,4.62,92,88,2.37,overcast clouds
496,Le Vauclin,MQ,14.5452,-60.8388,84.85,58,40,14.97,scattered clouds
497,Kirsanov,RU,52.6549,42.7224,17.85,96,100,7.49,overcast clouds
498,Charagua,BO,-19.8,-63.2167,76.57,50,97,11.12,overcast clouds
499,Priyutovo,RU,53.9,53.9333,9.73,97,100,3.0,overcast clouds
500,Muscat,OM,23.6139,58.5922,75.22,60,0,6.76,clear sky
501,Nampula,MZ,-15.1165,39.2666,74.32,81,14,3.53,few clouds
502,Sioux Lookout,CA,50.1001,-91.917,-0.02,90,100,7.07,overcast clouds
503,Bere,TD,9.3202,16.1552,92.75,11,31,5.08,scattered clouds
504,Riyadh,SA,24.6877,46.7219,59.14,31,0,9.64,clear sky
505,Chaihe,CN,44.7667,129.7,-4.61,97,88,4.68,overcast clouds
506,Luwuk,ID,-0.9516,122.7875,77.0,85,88,3.15,overcast clouds
507,Dalupirip,PH,16.3258,120.7256,69.51,90,55,6.26,broken clouds
508,Port Hardy,CA,50.6996,-127.4199,46.76,84,100,14.29,overcast clouds
509,Taree,AU,-31.9,152.4667,62.06,91,89,5.21,overcast clouds
510,Auki,SB,-8.7676,160.7034,78.62,88,100,7.92,overcast clouds
511,San Cristobal,VE,7.7669,-72.225,74.32,64,91,4.14,overcast clouds
512,Valparaiso,CL,-33.0393,-71.6273,67.64,77,100,5.75,fog
513,Georgiyevka,KZ,43.0369,74.7114,35.64,93,100,8.95,overcast clouds
514,Verkhnevilyuysk,RU,63.4453,120.3167,-6.92,99,100,4.99,overcast clouds
515,Lerik,AZ,38.7726,48.4128,29.84,62,24,6.98,few clouds
516,Auch,FR,43.65,0.5833,52.25,89,100,7.0,overcast clouds
517,Caceres,ES,39.522,-6.3748,60.8,48,30,7.56,scattered clouds
518,Asosa,ET,10.0667,34.5333,72.28,24,100,4.97,overcast clouds
519,Banjar,ID,-8.19,114.9675,78.66,93,100,3.02,light rain
520,Beloha,MG,-25.1667,45.05,74.86,92,100,21.7,light rain
521,Aktas,KZ,49.7789,72.9608,11.95,78,4,9.44,clear sky
522,Kailua,US,21.4022,-157.7394,73.38,82,75,9.22,light rain
523,Abnub,EG,27.2696,31.1511,61.3,36,0,9.22,clear sky
524,Sydney,AU,-33.8679,151.2073,66.11,88,75,5.01,light rain
525,Mahibadhoo,MV,3.7833,72.9667,82.26,63,17,11.79,few clouds
526,Tarakan,ID,3.3,117.6333,79.12,78,97,5.75,overcast clouds
527,Rorvik,NO,64.8621,11.2373,35.71,69,75,13.8,broken clouds
528,Tenenkou,ML,14.4572,-4.9169,91.0,6,0,5.53,clear sky
529,Ukhta,RU,63.5671,53.6835,12.78,91,94,9.06,overcast clouds
530,Bonavista,CA,48.6499,-53.1147,17.11,69,100,26.22,overcast clouds
531,Tarancon,ES,40.0085,-3.0073,55.89,25,40,6.53,scattered clouds
532,Broken Hill,AU,-31.95,141.4333,74.59,32,13,13.78,few clouds
533,Horasan,TR,40.0458,42.1728,2.35,92,58,1.77,broken clouds
534,Whitehorse,CA,60.7161,-135.0538,15.8,96,79,5.08,broken clouds
535,Fort Nelson,CA,58.8053,-122.7002,12.79,96,47,0.16,scattered clouds
536,Kidal,ML,18.4411,1.4078,80.33,7,0,13.09,clear sky
537,Shenjiamen,CN,29.9576,122.298,43.14,67,96,8.19,overcast clouds
538,Bonnyville,CA,54.2668,-110.735,33.67,99,100,12.62,light snow
539,Tiznit,MA,29.5833,-9.5,74.57,16,14,10.02,few clouds
540,Wahiawa,US,21.5028,-158.0236,70.12,83,88,6.73,overcast clouds
541,Gat,IL,31.61,34.7642,56.39,82,46,5.99,scattered clouds
542,Veraval,IN,20.9,70.3667,68.74,67,6,8.61,clear sky
543,Pitimbu,BR,-7.4706,-34.8086,88.39,54,66,9.75,broken clouds
544,Manoel Urbano,BR,-8.8389,-69.2597,84.43,71,93,4.12,overcast clouds
545,Matveyevka,RU,52.15,56.1833,14.95,98,99,2.17,overcast clouds
546,Ossora,RU,59.2353,163.0719,7.9,72,100,12.64,overcast clouds
547,Rio Real,BR,-11.4847,-37.9328,90.91,44,96,12.64,overcast clouds
548,Golden,US,39.7555,-105.2211,34.03,65,20,1.99,few clouds
549,Adamantina,BR,-21.6853,-51.0725,83.98,62,49,8.46,scattered clouds
550,Murray Bridge,AU,-35.1167,139.2667,78.69,34,36,10.94,scattered clouds
551,Naze,JP,28.3667,129.4833,51.66,66,100,11.83,overcast clouds
552,Abbeville,FR,50.1,1.8333,52.48,80,100,29.46,overcast clouds
553,Leh,IN,34.1667,77.5833,10.22,84,82,1.81,broken clouds
554,Tonekabon,IR,36.8163,50.8738,44.44,79,81,7.56,broken clouds
555,Bubaque,GW,11.2833,-15.8333,78.4,64,9,10.56,clear sky
